{
"type": "FeatureCollection",
"name": "churches_white",
"crs": { "type": "name", "properties": { "name": "urn:ogc:def:crs:OGC:1.3:CRS84" } },
"features": [
{ "type": "Feature", "properties": { "Name": "Second Church", "Denomination": "Baptist", "Pastor": "Rev. J.P. Warren", "Source": "Boyd's directory (1870)", "Address": "Virginia avenue corner 4th", "URL": "http:\/\/civilwardc.org\/data\/places\/view\/329" }, "geometry": { "type": "Point", "coordinates": [ -77.00032, 38.88009 ] } },
{ "type": "Feature", "properties": { "Name": "Calvary Baptist", "Denomination": "Baptist", "Pastor": "Rev. J.W. Parker, D.D.", "Source": "Boyd's directory (1870)", "Address": "corner of 8th and H", "URL": "http:\/\/civilwardc.org\/data\/places\/view\/340" }, "geometry": { "type": "Point", "coordinates": [ -77.02318, 38.89998 ] } },
{ "type": "Feature", "properties": { "Name": "St. Patrick's Church", "Denomination": "Christian", "Pastor": "Rev. J.A. Walter (pastor); Rev. J. J., Keane, asst", "Source": "Boyd's directory (1870)", "Address": "F north corner 10th west", "URL": "http:\/\/civilwardc.org\/data\/places\/view\/333" }, "geometry": { "type": "Point", "coordinates": [ -77.02573, 38.89749 ] } },
{ "type": "Feature", "properties": { "Name": "St. Matthew's Church", "Denomination": "Christian", "Pastor": "Rev. Charles I. White, D.D.; Rev. James Mackin, as", "Source": "Boyd's directory (1870)", "Address": "corner 15th and W", "URL": "http:\/\/civilwardc.org\/data\/places\/view\/335" }, "geometry": { "type": "Point", "coordinates": [ -77.03451, 38.91965 ] } },
{ "type": "Feature", "properties": { "Name": "St. Dominick's Church", "Denomination": "Christian", "Pastor": "Rev. F. Coll, O.P.; Rev. J.A. Bokel, O.P., Rev. N.", "Source": "Boyd's directory (1870)", "Address": "on Island, 6th west corner F south", "URL": "http:\/\/civilwardc.org\/data\/places\/view\/337" }, "geometry": { "type": "Point", "coordinates": [ -77.02021, 38.88245 ] } },
{ "type": "Feature", "properties": { "Name": "Christian Church", "Denomination": "Christian", "Pastor": "(none listed)", "Source": "Boyd's directory (1870)", "Address": "City Hall, Supreme Courtroom", "URL": "http:\/\/civilwardc.org\/data\/places\/view\/344" }, "geometry": { "type": "Point", "coordinates": [ -77.01737, 38.8953 ] } },
{ "type": "Feature", "properties": { "Name": "First Congregational", "Denomination": "Congregational", "Pastor": "Rev. J.W. Rankin", "Source": "Boyd's directory (1870)", "Address": "corner G north and 10th west", "URL": null }, "geometry": { "type": "Point", "coordinates": [ -77.02625, 38.89845 ] } },
{ "type": "Feature", "properties": { "Name": "Christ Church", "Denomination": "Episcopal", "Pastor": "Rev. C.H. Shields, rector", "Source": "Boyd's directory (1870)", "Address": "G south, between 6th and 7th east", "URL": "http:\/\/civilwardc.org\/data\/places\/view\/346" }, "geometry": { "type": "Point", "coordinates": [ -76.9972, 38.88148 ] } },
{ "type": "Feature", "properties": { "Name": "St. John's Church", "Denomination": "Episcopal", "Pastor": "Rev. John V. Lewis, rector; Rev. McKee, assistant", "Source": "Boyd's directory (1870)", "Address": "16th corner H northwest", "URL": "http:\/\/civilwardc.org\/data\/places\/view\/347" }, "geometry": { "type": "Point", "coordinates": [ -77.03615, 38.90038 ] } },
{ "type": "Feature", "properties": { "Name": "Church of the Epiphany", "Denomination": "Episcopal", "Pastor": "Rev. Thomas A Starkey, D.D, rector; Rev. Mr. Jones", "Source": "Boyd's directory (1870)", "Address": "G north between 13th and 14th west", "URL": "http:\/\/civilwardc.org\/data\/places\/view\/351" }, "geometry": { "type": "Point", "coordinates": [ -77.03072, 38.89846 ] } },
{ "type": "Feature", "properties": { "Name": "Church of the Ascension", "Denomination": "Episcopal", "Pastor": "Rev. WM Pinkney, D.D., rector", "Source": "Boyd's directory (1870)", "Address": "H north, between 9th and 10th west", "URL": "http:\/\/civilwardc.org\/data\/places\/view\/352" }, "geometry": { "type": "Point", "coordinates": [ -77.02514, 38.89997 ] } },
{ "type": "Feature", "properties": { "Name": "Grace Church", "Denomination": "Episcopal", "Pastor": "Rev. A Holmead, rector", "Source": "Boyd's directory (1870)", "Address": "Island, D south, between  8th and 9th", "URL": "http:\/\/civilwardc.org\/data\/places\/view\/353" }, "geometry": { "type": "Point", "coordinates": [ -77.02356, 38.88501 ] } },
{ "type": "Feature", "properties": { "Name": "Church of the Incarnation", "Denomination": "Episcopal", "Pastor": "Rev. R.W. Lowne, rector", "Source": "Boyd's directory (1870)", "Address": "corner N north and 12th west", "URL": null }, "geometry": { "type": "Point", "coordinates": [ -77.028, 38.90735 ] } },
{ "type": "Feature", "properties": { "Name": "Meeting House (Hicksite)", "Denomination": "Friends", "Pastor": "(none listed)", "Source": "Boyd's directory (1870)", "Address": "north L northside, between 18th and 19th west", "URL": "http:\/\/civilwardc.org\/data\/places\/view\/361" }, "geometry": { "type": "Point", "coordinates": [ -77.04259, 38.90396 ] } },
{ "type": "Feature", "properties": { "Name": "German Evangelical, Congregation of the Trinity", "Denomination": "Lutheran", "Pastor": "Rev. P. Brand", "Source": "Boyd's directory (1870)", "Address": "4th west corner E north", "URL": "http:\/\/civilwardc.org\/data\/places\/view\/363" }, "geometry": { "type": "Point", "coordinates": [ -77.01578, 38.8959 ] } },
{ "type": "Feature", "properties": { "Name": "German Evangelical", "Denomination": "Lutheran", "Pastor": "Rev. L. Rietz", "Source": "Boyd's directory (1870)", "Address": "G north corner 20th west, first ward", "URL": "http:\/\/civilwardc.org\/data\/places\/view\/364" }, "geometry": { "type": "Point", "coordinates": [ -77.04477, 38.89853 ] } },
{ "type": "Feature", "properties": { "Name": "St. Paul's", "Denomination": "English Lutheran", "Pastor": "Rev. J.G. Butler, D.D.", "Source": "Boyd's directory (1870)", "Address": "corner 11th and H west", "URL": "http:\/\/civilwardc.org\/data\/places\/view\/355" }, "geometry": { "type": "Point", "coordinates": [ -77.02675, 38.89998 ] } },
{ "type": "Feature", "properties": { "Name": "Capitol Hill", "Denomination": "English Lutheran", "Pastor": "Rev. J.G. Butler", "Source": "Boyd's directory (1870)", "Address": "corner 14th and N northwest", "URL": "" }, "geometry": { "type": "Point", "coordinates": [ -77.0062, 38.88586 ] } },
{ "type": "Feature", "properties": { "Name": "Memorial", "Denomination": "English Lutheran", "Pastor": "Rev. W.E. Parson", "Source": "Boyd's directory (1870)", "Address": "1st and C southeast", "URL": null }, "geometry": { "type": "Point", "coordinates": [ -77.03163, 38.90739 ] } },
{ "type": "Feature", "properties": { "Name": "East Washington", "Denomination": "Methodist Episcopal", "Pastor": "Rev. W.H. Holiday", "Source": "Boyd's directory (1870)", "Address": "4th between G and South Carolina avenue", "URL": "http:\/\/civilwardc.org\/data\/places\/view\/373" }, "geometry": { "type": "Point", "coordinates": [ -77.00032, 38.88198 ] } },
{ "type": "Feature", "properties": { "Name": "Hamline Church", "Denomination": "Methodist Episcopal", "Pastor": "Rev. L.T. Weiderman", "Source": "Boyd's directory (1870)", "Address": "corner of 9th west and P north", "URL": null }, "geometry": { "type": "Point", "coordinates": [ -77.02374, 38.90981 ] } },
{ "type": "Feature", "properties": { "Name": "Union Chapel", "Denomination": "Methodist Episcopal", "Pastor": "Rev. W. T.L. Weech", "Source": "Boyd's directory (1870)", "Address": "20th near Pennsylvania avenue", "URL": "http:\/\/civilwardc.org\/data\/places\/view\/376" }, "geometry": { "type": "Point", "coordinates": [ -77.04526, 38.90048 ] } },
{ "type": "Feature", "properties": { "Name": "Fletcher Chapel", "Denomination": "Methodist Episcopal", "Pastor": "Rev. J.M. Green", "Source": "Boyd's directory (1870)", "Address": "corner of New York avenue and 4th", "URL": "http:\/\/civilwardc.org\/data\/places\/view\/377" }, "geometry": { "type": "Point", "coordinates": [ -77.01592, 38.90464 ] } },
{ "type": "Feature", "properties": { "Name": "Gotsuch Chapel", "Denomination": "Methodist Episcopal", "Pastor": "Rev. W.G. Hobbs", "Source": "Boyd's directory (1870)", "Address": "L south corner 4 1\/2", "URL": "http:\/\/civilwardc.org\/data\/places\/view\/378" }, "geometry": { "type": "Point", "coordinates": [ -77.01779, 38.8774 ] } },
{ "type": "Feature", "properties": { "Name": "Waugh Chapel", "Denomination": "Methodist Episcopal", "Pastor": "Rev. J.N. Davis", "Source": "Boyd's directory (1870)", "Address": "A north, corner of 4th east", "URL": "http:\/\/civilwardc.org\/data\/places\/view\/379" }, "geometry": { "type": "Point", "coordinates": [ -77.00084, 38.89117 ] } },
{ "type": "Feature", "properties": { "Name": "Providence Chapel", "Denomination": "Methodist Episcopal", "Pastor": "Rev. Thomas C. Clark", "Source": "Boyd's directory (1870)", "Address": "2nd east corner I north", "URL": "http:\/\/civilwardc.org\/data\/places\/view\/380" }, "geometry": { "type": "Point", "coordinates": [ -77.00319, 38.90162 ] } },
{ "type": "Feature", "properties": { "Name": "Wesley Chapel Mission", "Denomination": "Methodist Episcopal", "Pastor": "Rev. James G. Henning", "Source": "Boyd's directory (1870)", "Address": "corner 9th and S north", "URL": null }, "geometry": { "type": "Point", "coordinates": [ -77.02372, 38.91425 ] } },
{ "type": "Feature", "properties": { "Name": "Church North Capitol", "Denomination": "New Jerusalem", "Pastor": "Rev. Jabex Fox", "Source": "Boyd's directory (1870)", "Address": "between B and C", "URL": "http:\/\/civilwardc.org\/data\/places\/view\/385" }, "geometry": { "type": "Point", "coordinates": [ -77.00935, 38.89292 ] } },
{ "type": "Feature", "properties": { "Name": "First Presbyterian Church", "Denomination": "Presbyterian", "Pastor": "Rev. B. Sonderland, D.D.", "Source": "Boyd's directory (1870)", "Address": "4 1\/2 near City Hall", "URL": "http:\/\/civilwardc.org\/data\/places\/view\/386" }, "geometry": { "type": "Point", "coordinates": [ -77.0172, 38.89428 ] } },
{ "type": "Feature", "properties": { "Name": "Fourth Church", "Denomination": "Presbyterian", "Pastor": "Rev. S.S. Mitchell", "Source": "Boyd's directory (1870)", "Address": "New York avenue, between 13th and 14th", "URL": "http:\/\/civilwardc.org\/data\/places\/view\/388" }, "geometry": { "type": "Point", "coordinates": [ -77.0237, 38.89931 ] } },
{ "type": "Feature", "properties": { "Name": "New York Avenue Church", "Denomination": "Presbyterian", "Pastor": "Rev. John C. Smith, D.D.", "Source": "Boyd's directory (1870)", "Address": "9th", "URL": "http:\/\/civilwardc.org\/data\/places\/view\/387" }, "geometry": { "type": "Point", "coordinates": [ -77.03103, 38.89926 ] } },
{ "type": "Feature", "properties": { "Name": "Assembly's", "Denomination": "Presbyterian", "Pastor": "Rev. William Hart", "Source": "Boyd's directory (1870)", "Address": "corner of Massachusets avenue and 5th street", "URL": "http:\/\/civilwardc.org\/data\/places\/view\/389" }, "geometry": { "type": "Point", "coordinates": [ -77.01905, 38.90071 ] } },
{ "type": "Feature", "properties": { "Name": "Western Presbyterian Church", "Denomination": "Presbyterian", "Pastor": "Rev. J.N. Combs", "Source": "Boyd's directory (1870)", "Address": "between 19th and 20th near Pennsylvania avenue, 1s", "URL": "http:\/\/civilwardc.org\/data\/places\/view\/392" }, "geometry": { "type": "Point", "coordinates": [ -77.0442, 38.90077 ] } },
{ "type": "Feature", "properties": { "Name": "Capitol Hill Presbyterian", "Denomination": "Presbyterian", "Pastor": "Rev. John Chester", "Source": "Boyd's directory (1870)", "Address": "4th east, between B south and Pennsylvania avenue", "URL": "http:\/\/civilwardc.org\/data\/places\/view\/393" }, "geometry": { "type": "Point", "coordinates": [ -77.00033, 38.88712 ] } },
{ "type": "Feature", "properties": { "Name": "German Reformed Church", "Denomination": "Presbyterian", "Pastor": "Rev. J.W. Ebbinghouse", "Source": "Boyd's directory (1870)", "Address": "corner of 6th west and N south", "URL": null }, "geometry": { "type": "Point", "coordinates": [ -77.01969, 38.87488 ] } },
{ "type": "Feature", "properties": { "Name": "Memorial Church", "Denomination": "Unitarian", "Pastor": "Rev. A Floridus Steele", "Source": "Boyd's directory (1870)", "Address": "A south between 2nd and 3rd east, Capitol Hill", "URL": null }, "geometry": { "type": "Point", "coordinates": [ -77.00291, 38.88852 ] } },
{ "type": "Feature", "properties": { "Name": "The Baptist Church of Christ in Washington", "Denomination": "Unitarian", "Pastor": "Rev. D.W. Anderson", "Source": "Boyd's directory (1870)", "Address": "19th corner L", "URL": null }, "geometry": { "type": "Point", "coordinates": [ -77.04371, 38.90115 ] } },
{ "type": "Feature", "properties": { "Name": "First Baptist Church", "Denomination": "Baptist", "Pastor": " ", "Source": "1866", "Address": " ", "URL": "http:\/\/civilwardc.org\/data\/places\/view\/315" }, "geometry": { "type": "Point", "coordinates": [ -77.02918, 38.89894 ] } },
{ "type": "Feature", "properties": { "Name": "Fifth Baptist Church", "Denomination": "Baptist", "Pastor": " ", "Source": " ", "Address": " ", "URL": "http:\/\/civilwardc.org\/data\/places\/view\/331" }, "geometry": { "type": "Point", "coordinates": [ -77.0167, 38.88523 ] } },
{ "type": "Feature", "properties": { "Name": "E Street Church", "Denomination": "Baptist", "Pastor": " ", "Source": " ", "Address": " ", "URL": "http:\/\/civilwardc.org\/data\/places\/view\/330" }, "geometry": { "type": "Point", "coordinates": [ -77.02038, 38.89583 ] } },
{ "type": "Feature", "properties": { "Name": "St. Peter's Church", "Denomination": "Catholic", "Pastor": " ", "Source": " ", "Address": " ", "URL": "http:\/\/civilwardc.org\/data\/places\/view\/334" }, "geometry": { "type": "Point", "coordinates": [ -77.00383, 38.88575 ] } },
{ "type": "Feature", "properties": { "Name": "St. Mary's (German)", "Denomination": "Catholic", "Pastor": " ", "Source": " ", "Address": " ", "URL": "http:\/\/civilwardc.org\/data\/places\/view\/336" }, "geometry": { "type": "Point", "coordinates": [ -77.01858, 38.89937 ] } },
{ "type": "Feature", "properties": { "Name": "St. Aloysius Church", "Denomination": "Catholic", "Pastor": " ", "Source": " ", "Address": " ", "URL": "http:\/\/civilwardc.org\/data\/places\/view\/338" }, "geometry": { "type": "Point", "coordinates": [ -77.00943, 38.90158 ] } },
{ "type": "Feature", "properties": { "Name": "Trinity Church", "Denomination": "Episcopal", "Pastor": " ", "Source": " ", "Address": " ", "URL": "http:\/\/civilwardc.org\/data\/places\/view\/348" }, "geometry": { "type": "Point", "coordinates": [ -77.01467, 38.89382 ] } },
{ "type": "Feature", "properties": { "Name": "Orthodox Meeting House", "Denomination": "Friends", "Pastor": " ", "Source": " ", "Address": " ", "URL": "http:\/\/civilwardc.org\/data\/places\/view\/360" }, "geometry": { "type": "Point", "coordinates": [ -77.02371, 38.91325 ] } },
{ "type": "Feature", "properties": { "Name": "Washington Hebrew Congregation", "Denomination": "Hebrew", "Pastor": " ", "Source": " ", "Address": " ", "URL": "http:\/\/civilwardc.org\/data\/places\/view\/362" }, "geometry": { "type": "Point", "coordinates": [ -77.02318, 38.90032 ] } },
{ "type": "Feature", "properties": { "Name": "Wesley Chapel", "Denomination": "Methodist Episcopal", "Pastor": " ", "Source": " ", "Address": " ", "URL": "http:\/\/civilwardc.org\/data\/places\/view\/371" }, "geometry": { "type": "Point", "coordinates": [ -77.01905, 38.89711 ] } },
{ "type": "Feature", "properties": { "Name": "McKendree Chapel", "Denomination": "Methodist Episcopal", "Pastor": " ", "Source": " ", "Address": " ", "URL": "http:\/\/civilwardc.org\/data\/places\/view\/372" }, "geometry": { "type": "Point", "coordinates": [ -77.02464, 38.90337 ] } },
{ "type": "Feature", "properties": { "Name": "East Washington", "Denomination": "Methodist Protestant", "Pastor": " ", "Source": " ", "Address": " ", "URL": "http:\/\/civilwardc.org\/data\/places\/view\/373" }, "geometry": { "type": "Point", "coordinates": [ -76.99911, 38.87975 ] } },
{ "type": "Feature", "properties": { "Name": "Methodist Protestant Church", "Denomination": "Methodist Protestant", "Pastor": " ", "Source": " ", "Address": " ", "URL": "http:\/\/civilwardc.org\/data\/places\/view\/383" }, "geometry": { "type": "Point", "coordinates": [ -77.02372, 38.89653 ] } },
{ "type": "Feature", "properties": { "Name": "Sixth Presbyterian Church", "Denomination": "Presbyterian", "Pastor": " ", "Source": " ", "Address": " ", "URL": "http:\/\/civilwardc.org\/data\/places\/view\/390" }, "geometry": { "type": "Point", "coordinates": [ -76.99816, 38.89442 ] } },
{ "type": "Feature", "properties": { "Name": "Mount of Olives Church", "Denomination": "Baptist", "Pastor": " ", "Source": " ", "Address": " ", "URL": null }, "geometry": { "type": "Point", "coordinates": [ -77.02316, 38.89414 ] } },
{ "type": "Feature", "properties": { "Name": "Second Baptist Church", "Denomination": "Baptist", "Pastor": " ", "Source": " ", "Address": " ", "URL": "" }, "geometry": { "type": "Point", "coordinates": [ -77.01657, 38.88392 ] } },
{ "type": "Feature", "properties": { "Name": "St. Paul's Church", "Denomination": "Episcopal", "Pastor": " ", "Source": " ", "Address": " ", "URL": null }, "geometry": { "type": "Point", "coordinates": [ -77.04984, 38.90155 ] } },
{ "type": "Feature", "properties": { "Name": "Mount Vernon Place", "Denomination": "Episcopal", "Pastor": " ", "Source": " ", "Address": " ", "URL": null }, "geometry": { "type": "Point", "coordinates": [ -77.02476, 38.9028 ] } },
{ "type": "Feature", "properties": { "Name": "Emanuel's Church", "Denomination": "Evangelical Association", "Pastor": " ", "Source": " ", "Address": " ", "URL": null }, "geometry": { "type": "Point", "coordinates": [ -77.01958, 38.90482 ] } },
{ "type": "Feature", "properties": { "Name": "Foundry Church", "Denomination": "Methodist Episcopal", "Pastor": " ", "Source": " ", "Address": " ", "URL": null }, "geometry": { "type": "Point", "coordinates": [ -77.03216, 38.89845 ] } },
{ "type": "Feature", "properties": { "Name": "Ryland Chapel", "Denomination": "Methodist Episcopal", "Pastor": " ", "Source": " ", "Address": " ", "URL": null }, "geometry": { "type": "Point", "coordinates": [ -77.02574, 38.89466 ] } },
{ "type": "Feature", "properties": { "Name": "Universalist Church", "Denomination": "Unitarian", "Pastor": " ", "Source": " ", "Address": " ", "URL": null }, "geometry": { "type": "Point", "coordinates": [ -77.02489, 38.89434 ] } },
{ "type": "Feature", "properties": { "Name": "Trinity Mission", "Denomination": "Episcopal", "Pastor": " ", "Source": " ", "Address": " ", "URL": "http:\/\/civilwardc.org\/data\/places\/view\/349" }, "geometry": { "type": "Point", "coordinates": [ -77.0201, 38.89963 ] } },
{ "type": "Feature", "properties": { "Name": "St. Andrews Church", "Denomination": "Episcopal", "Pastor": " ", "Source": " ", "Address": " ", "URL": "http:\/\/civilwardc.org\/data\/places\/view\/356" }, "geometry": { "type": "Point", "coordinates": [ -77.0305, 38.90737 ] } },
{ "type": "Feature", "properties": { "Name": "Orthodox Meeting House", "Denomination": "Friends", "Pastor": " ", "Source": " ", "Address": " ", "URL": "http:\/\/civilwardc.org\/data\/places\/view\/360" }, "geometry": { "type": "Point", "coordinates": [ -77.02379, 38.89548 ] } },
{ "type": "Feature", "properties": { "Name": "Methodist Protestant Church South", "Denomination": "Methodist Protestant", "Pastor": " ", "Source": " ", "Address": " ", "URL": "http:\/\/civilwardc.org\/data\/places\/view\/384" }, "geometry": { "type": "Point", "coordinates": [ -77.02278, 38.87986 ] } },
{ "type": "Feature", "properties": { "Name": "Seventh Presbyterian Church", "Denomination": "Presbyterian", "Pastor": " ", "Source": " ", "Address": " ", "URL": "http:\/\/civilwardc.org\/data\/places\/view\/391" }, "geometry": { "type": "Point", "coordinates": [ -77.02218, 38.88409 ] } },
{ "type": "Feature", "properties": { "Name": "North Presbyterian", "Denomination": "Presbyterian", "Pastor": " ", "Source": " ", "Address": " ", "URL": null }, "geometry": { "type": "Point", "coordinates": [ -77.02503, 38.90734 ] } },
{ "type": "Feature", "properties": { "Name": "Central Presbyterian", "Denomination": "Presbyterian", "Pastor": " ", "Source": " ", "Address": " ", "URL": "http:\/\/civilwardc.org\/data\/places\/view\/396" }, "geometry": { "type": "Point", "coordinates": [ -77.02314, 38.8986 ] } }
]
}
