{
"type": "FeatureCollection",
"name": "govt_buildings",
"crs": { "type": "name", "properties": { "name": "urn:ogc:def:crs:OGC:1.3:CRS84" } },
"features": [
{ "type": "Feature", "properties": { "Name": "Executive Mansion", "URL": null }, "geometry": { "type": "Point", "coordinates": [ -77.03663, 38.89762 ] } },
{ "type": "Feature", "properties": { "Name": "War Department", "URL": "http:\/\/civilwardc.org\/data\/places\/view\/425" }, "geometry": { "type": "Point", "coordinates": [ -77.03901, 38.89805 ] } },
{ "type": "Feature", "properties": { "Name": "Navy Department", "URL": null }, "geometry": { "type": "Point", "coordinates": [ -77.03905, 38.89752 ] } },
{ "type": "Feature", "properties": { "Name": "US Treasury Department", "URL": "http:\/\/civilwardc.org\/data\/places\/view\/451" }, "geometry": { "type": "Point", "coordinates": [ -77.03429, 38.89751 ] } },
{ "type": "Feature", "properties": { "Name": "Patent Office", "URL": null }, "geometry": { "type": "Point", "coordinates": [ -77.02297, 38.89756 ] } },
{ "type": "Feature", "properties": { "Name": "General Post Office", "URL": null }, "geometry": { "type": "Point", "coordinates": [ -77.02241, 38.89657 ] } },
{ "type": "Feature", "properties": { "Name": "City Hall", "URL": null }, "geometry": { "type": "Point", "coordinates": [ -77.01751, 38.89529 ] } },
{ "type": "Feature", "properties": { "Name": "City Jail", "URL": null }, "geometry": { "type": "Point", "coordinates": [ -77.01652, 38.89778 ] } },
{ "type": "Feature", "properties": { "Name": "US Capitol", "URL": null }, "geometry": { "type": "Point", "coordinates": [ -77.00903, 38.88985 ] } },
{ "type": "Feature", "properties": { "Name": "Federal office building", "URL": null }, "geometry": { "type": "Point", "coordinates": [ -77.03322, 38.89698 ] } }
]
}
